city,station_name,empty_slots,slots,free_bikes,ebikes,latitude,longitude,timestamp
Vancouver,10th & Cambie,19,35,16,5,49.262487,-123.114397,2023-06-03T16:41:29.944000Z
Vancouver,Yaletown-Roundhouse Station,5,16,11,3,49.274566,-123.121817,2023-06-03T16:41:29.933000Z
Vancouver,Dunsmuir & Beatty,24,26,2,2,49.279764,-123.110154,2023-06-03T16:41:29.941000Z
Vancouver,12th & Yukon (City Hall),14,16,2,2,49.260599,-123.113504,2023-06-03T16:41:29.942000Z
Vancouver,8th & Ash,13,16,3,1,49.264215,-123.117772,2023-06-03T16:41:29.956000Z
Vancouver,Spyglass & Seawall,0,14,14,0,49.270877,-123.115103,2023-06-03T16:41:29.957000Z
Vancouver,Stamps Landing,6,14,8,2,49.26893,-123.11813,2023-06-03T16:41:29.993000Z
Vancouver,Ontario & Seawall,3,20,17,0,49.271721,-123.104207,2023-06-03T16:41:29.993000Z
Vancouver,Canada Place,9,26,17,4,49.287214,-123.11287,2023-06-03T16:41:29.991000Z
Vancouver,Granville & Georgia,13,20,7,1,49.282409,-123.118541,2023-06-03T16:41:29.990000Z
Vancouver,Pender & Burrard,17,26,9,1,49.287097,-123.118551,2023-06-03T16:41:29.989000Z
Vancouver,Marinaside & Davie,8,22,14,1,49.273471,-123.118016,2023-06-03T16:41:29.980000Z
Vancouver,Robson & Hornby,23,30,6,2,49.282758,-123.122092,2023-06-03T16:41:29.998000Z
Vancouver,Hornby & Pender,18,22,4,2,49.28602,-123.116624,2023-06-03T16:41:30.017000Z
Vancouver,Homer & Robson (Vancouver Public Library),20,20,0,0,49.279739,-123.116251,2023-06-03T16:41:30.018000Z
Vancouver,Beatty & Robson,17,20,3,1,49.277483,-123.114279,2023-06-03T16:41:30.016000Z
Vancouver,Beatty & Nelson,11,14,3,0,49.275679,-123.116963,2023-06-03T16:41:30.016000Z
Vancouver,Abbott & Cordova,1,22,21,0,49.282759,-123.106955,2023-06-03T16:41:29.693000Z
Vancouver,Comox & Denman,14,18,4,1,49.288444,-123.139203,2023-06-03T16:41:29.694000Z
Vancouver,Cordova & Bute,3,14,10,1,49.289124,-123.12196,2023-06-03T16:41:29.685000Z
Vancouver,Hornby & Nelson,8,18,10,4,49.28062,-123.12482,2023-06-03T16:41:29.686000Z
Vancouver,Helmcken & Burrard,7,15,8,1,49.279938,-123.127478,2023-06-03T16:41:29.681000Z
Vancouver,Pacific & Richards,6,14,8,0,49.273663,-123.127075,2023-06-03T16:41:29.720000Z
Vancouver,Chilco & Beach,4,14,10,0,49.28972,-123.144028,2023-06-03T16:41:29.734000Z
Vancouver,Comox & Broughton,8,12,4,3,49.285253,-123.134356,2023-06-03T16:41:29.714000Z
Vancouver,Bute & Comox,6,22,16,0,49.283343,-123.131099,2023-06-03T16:41:29.757000Z
Vancouver,Cambie & Water,14,32,18,0,49.284605,-123.108662,2023-06-03T16:41:29.756000Z
Vancouver,Keefer & Abbott,9,28,18,0,49.279821,-123.10802,2023-06-03T16:41:29.756000Z
Vancouver,Expo & Carrall,0,16,14,1,49.278004,-123.105664,2023-06-03T16:41:29.764000Z
Vancouver,Keefer & Columbia,3,14,11,1,49.279342,-123.101822,2023-06-03T16:41:29.759000Z
Vancouver,Marinaside & Cooperage,13,26,13,1,49.273833,-123.114373,2023-06-03T16:41:29.758000Z
Vancouver,Bidwell & Burnaby,10,26,16,0,49.28526,-123.141809,2023-06-03T16:41:29.919000Z
Vancouver,Robson & Granville,28,30,2,0,49.281506,-123.120101,2023-06-03T16:41:29.918000Z
Vancouver,Expo & Smithe,2,14,12,0,49.276115,-123.114496,2023-06-03T16:41:29.912000Z
Vancouver,Cypress & Cornwall,3,22,19,3,49.272827,-123.147744,2023-06-03T16:41:29.917000Z
Vancouver,Anderson & 2nd,18,28,10,0,49.269361,-123.13782,2023-06-03T16:41:29.911000Z
Vancouver,7th & Granville,13,14,1,1,49.2653,-123.13811,2023-06-03T16:41:29.928000Z
Vancouver,10th & Granville,14,14,0,0,49.262598,-123.138921,2023-06-03T16:41:29.972000Z
Vancouver,14th & Granville,13,14,1,1,49.25894,-123.139272,2023-06-03T16:41:29.970000Z
Vancouver,14th & Cambie,10,14,4,4,49.258763,-123.115392,2023-06-03T16:41:29.973000Z
Vancouver,Ontario & 5th,7,20,14,0,49.266724,-123.104824,2023-06-03T16:41:29.973000Z
Vancouver,10th & Main,14,18,4,1,49.262141,-123.101961,2023-06-03T16:41:29.975000Z
Vancouver,Cypress & 4th,3,18,15,4,49.268269,-123.147885,2023-06-03T16:41:29.976000Z
Vancouver,Vanier Park,4,28,24,0,49.275717,-123.142564,2023-06-03T16:41:29.975000Z
Vancouver,Nelson & Mainland,18,20,2,0,49.276436,-123.11877,2023-06-03T16:41:29.979000Z
Vancouver,Nelson & Richards,13,18,3,0,49.277844,-123.120942,2023-06-03T16:41:29.978000Z
Vancouver,7th & Heather,11,18,7,1,49.265089,-123.119425,2023-06-03T16:41:30.011000Z
Vancouver,Harwood & Bute,16,20,4,1,49.28026,-123.135244,2023-06-03T16:41:30.007000Z
Vancouver,Chilco & Barclay,8,18,10,1,49.291909,-123.140713,2023-06-03T16:41:30.084000Z
Vancouver,Chilco & Robson,5,16,11,0,49.293257,-123.138563,2023-06-03T16:41:30.083000Z
Vancouver,Nicola & Robson,6,18,11,2,49.288011,-123.132006,2023-06-03T16:41:30.060000Z
Vancouver,Carrall & Hastings,2,18,16,1,49.28117,-123.104419,2023-06-03T16:41:30.050000Z
Vancouver,šxʷƛ̓ənəq Xwtl'e7énḵ Square - Vancouver Art Gallery,11,28,15,0,49.283227,-123.120523,2023-06-03T16:41:30.049000Z
Vancouver,Stanley Park - Vancouver Aquarium,2,16,14,5,49.299292,-123.130281,2023-06-03T16:41:29.819000Z
Vancouver,Stanley Park - Second Beach North,5,16,11,1,49.29534,-123.150433,2023-06-03T16:41:29.821000Z
Vancouver,Stanley Park - Second Beach South,6,19,13,1,49.294318,-123.148808,2023-06-03T16:41:29.811000Z
Vancouver,Stanley Park - Totem Poles,4,20,16,4,49.298657,-123.121176,2023-06-03T16:41:29.802000Z
Vancouver,Heather & 14th,18,18,0,0,49.259183,-123.120126,2023-06-03T16:41:29.818000Z
Vancouver,8th & Ontario,11,16,5,0,49.263837,-123.105173,2023-06-03T16:41:29.817000Z
Vancouver,1st & Chestnut,15,26,10,2,49.270721,-123.146175,2023-06-03T16:41:29.799000Z
Vancouver,7th & Arbutus,10,16,6,0,49.265605,-123.152566,2023-06-03T16:41:29.796000Z
Vancouver,5th & Arbutus,10,16,6,2,49.267222,-123.153157,2023-06-03T16:41:29.743000Z
Vancouver,10th & Oak,19,30,6,3,49.262255,-123.126217,2023-06-03T16:41:29.741000Z
Vancouver,Arbutus & 16th,24,40,16,0,49.257654,-123.153212,2023-06-03T16:41:29.742000Z
Vancouver,Cypress & 14th,4,12,7,4,49.25919,-123.148268,2023-06-03T16:41:29.754000Z
Vancouver,Cypress & 16th,9,12,3,3,49.25741,-123.148531,2023-06-03T16:41:29.755000Z
Vancouver,Georgia & Thurlow,12,12,0,0,49.285953,-123.124066,2023-06-03T16:41:29.717000Z
Vancouver,Thurlow & Pendrell,5,16,11,4,49.280881,-123.130672,2023-06-03T16:41:29.715000Z
Vancouver,Heather & 16th,11,12,1,1,49.256845,-123.120071,2023-06-03T16:41:29.695000Z
Vancouver,14th & Ontario,12,16,3,1,49.25849,-123.104799,2023-06-03T16:41:29.683000Z
Vancouver,14th & Main,13,14,1,1,49.258425,-123.100792,2023-06-03T16:41:29.673000Z
Vancouver,David Lam Park - West,5,18,13,0,49.270905,-123.126006,2023-06-03T16:41:29.675000Z
Vancouver,Beach & Seymour,0,18,18,1,49.273568,-123.129935,2023-06-03T16:41:29.676000Z
Vancouver,Richards & Helmcken,2,18,13,10,49.277141,-123.122589,2023-06-03T16:41:30.023000Z
Vancouver,Burrard & 4th,10,16,6,0,49.267859,-123.145782,2023-06-03T16:41:30.040000Z
Vancouver,Burrard & 7th,14,16,2,1,49.265336,-123.145823,2023-06-03T16:41:29.696000Z
Vancouver,South False Creek Seawall,2,14,12,3,49.267628,-123.127698,2023-06-03T16:41:29.697000Z
Vancouver,Chestnut & McNicoll,9,16,7,0,49.275938,-123.145939,2023-06-03T16:41:29.701000Z
Vancouver,Creekside Park North,5,18,13,1,49.2756,-123.102661,2023-06-03T16:41:29.704000Z
Vancouver,Alexander & Main,3,20,16,0,49.284157,-123.099917,2023-06-03T16:41:30.004000Z
Vancouver,Arbutus Greenway & 14th,17,20,3,1,49.258924,-123.152591,2023-06-03T16:41:30.048000Z
Vancouver,Arbutus Greenway & Fir,6,16,10,1,49.266774,-123.141135,2023-06-03T16:41:30.049000Z
Vancouver,Kitsilano Beach Park,19,36,17,0,49.273355,-123.154493,2023-06-03T16:41:30.041000Z
Vancouver,Arbutus & McNicoll,5,30,25,3,49.276144,-123.151272,2023-06-03T16:41:30.047000Z
Vancouver,Vine & 4th,17,18,1,0,49.268339,-123.157443,2023-06-03T16:41:30.085000Z
Vancouver,Alexander & Dunlevy,5,14,9,0,49.284062,-123.095097,2023-06-03T16:41:29.955000Z
Vancouver,Alder & 11th,9,14,5,4,49.261742,-123.13148,2023-06-03T16:41:30.024000Z
Vancouver,10th & Columbia,10,14,4,2,49.262206,-123.109091,2023-06-03T16:41:29.897000Z
Vancouver,1st & Manitoba,18,32,14,1,49.27023,-123.10651,2023-06-03T16:41:29.905000Z
Vancouver,10th & Ontario,11,20,9,2,49.262062,-123.104656,2023-06-03T16:41:29.906000Z
Vancouver,Quebec & 1st,6,18,12,2,49.27033,-123.10275,2023-06-03T16:41:29.906000Z
Vancouver,Columbia & 14th,10,14,4,2,49.258902,-123.109596,2023-06-03T16:41:29.910000Z
Vancouver,Bute & Davie,10,20,10,5,49.282224,-123.132778,2023-06-03T16:41:29.908000Z
Vancouver,7th & Laurel,7,14,7,0,49.265071,-123.123864,2023-06-03T16:41:29.866000Z
Vancouver,7th &  Alder,11,16,5,1,49.265198,-123.131043,2023-06-03T16:41:29.853000Z
Vancouver,Science World,6,16,10,0,49.273691,-123.102232,2023-06-03T16:41:29.855000Z
Vancouver,1st & Scotia,0,20,20,1,49.2685027,-123.0975014,2023-06-03T16:41:29.868000Z
Vancouver,Georgia & Main,3,20,17,1,49.278529,-123.100017,2023-06-03T16:41:29.850000Z
Vancouver,Shaw Tower,9,18,5,0,49.288682,-123.11818,2023-06-03T16:41:29.781000Z
Vancouver,York & Yew,14,20,4,1,49.271741,-123.155421,2023-06-03T16:41:29.778000Z
Vancouver,Pine & 10th,12,20,8,0,49.262822,-123.14338,2023-06-03T16:41:29.778000Z
Vancouver,8th & Scotia,4,12,6,6,49.263635,-123.099236,2023-06-03T16:41:29.776000Z
Vancouver,Alberni & Jervis,12,18,6,2,49.28763,-123.127245,2023-06-03T16:41:29.777000Z
Vancouver,Stanley Park - Information Booth,5,20,15,4,49.297933,-123.130758,2023-06-03T16:41:29.785000Z
Vancouver,14th & Alder,7,14,7,1,49.258819,-123.131317,2023-06-03T16:41:29.846000Z
Vancouver,Pender & Gore,8,14,6,1,49.280284,-123.097052,2023-06-03T16:41:30.005000Z
Vancouver,Carrall & Seawall,6,12,6,1,49.276294,-123.106534,2023-06-03T16:41:30.026000Z
Vancouver,Glen & Union,6,14,8,1,49.277469,-123.081315,2023-06-03T16:41:30.019000Z
Vancouver,Adanac & McLean,10,22,11,0,49.277665,-123.073653,2023-06-03T16:41:29.784000Z
Vancouver,Commercial & Adanac,3,16,13,3,49.277436,-123.070427,2023-06-03T16:41:30.020000Z
Vancouver,Pender & Commercial,5,16,11,1,49.280332,-123.070068,2023-06-03T16:41:30.021000Z
Vancouver,Keefer & Princess,13,14,1,1,49.279369,-123.091241,2023-06-03T16:41:30.014000Z
Vancouver,Alexander & Railway,14,20,6,0,49.283992,-123.091206,2023-06-03T16:41:29.787000Z
Vancouver,Napier & Commercial,7,14,7,2,49.274881,-123.069323,2023-06-03T16:41:29.713000Z
Vancouver,Britannia Parking Lot,7,14,7,0,49.275882,-123.071865,2023-06-03T16:41:29.702000Z
Vancouver,Thornton & National,3,14,11,0,49.273777,-123.092723,2023-06-03T16:41:29.737000Z
Vancouver,Keith & 6th,18,28,10,0,49.265005,-123.079481,2023-06-03T16:41:29.961000Z
Vancouver,Glen & 6th,0,20,20,1,49.265024,-123.08127,2023-06-03T16:41:29.832000Z
Vancouver,Grant & Commercial,12,14,1,1,49.271377,-123.069416,2023-06-03T16:41:30.006000Z
Vancouver,2nd & Commercial,14,22,8,2,49.268616,-123.069908,2023-06-03T16:41:29.997000Z
Vancouver,4th & Commercial,11,14,3,0,49.266969,-123.069936,2023-06-03T16:41:29.999000Z
Vancouver,8th & Commercial,19,20,1,1,49.263242,-123.070521,2023-06-03T16:41:29.782000Z
Vancouver,10th & Commercial,22,26,3,0,49.261403,-123.070102,2023-06-03T16:41:30.003000Z
Vancouver,Woodland & 10th,5,14,9,0,49.261263,-123.073707,2023-06-03T16:41:29.953000Z
Vancouver,Glen & Broadway,8,18,10,3,49.262242,-123.081459,2023-06-03T16:41:29.943000Z
Vancouver,St George & Broadway,6,14,8,1,49.262321,-123.09306,2023-06-03T16:41:29.765000Z
Vancouver,7th & Woodland,4,12,8,1,49.264251,-123.073853,2023-06-03T16:41:29.955000Z
Vancouver,Woodland & 4th,1,14,13,0,49.266751,-123.073501,2023-06-03T16:41:29.959000Z
Vancouver,Woodland & Graveley,11,12,1,1,49.270684,-123.073562,2023-06-03T16:41:29.999000Z
Vancouver,Charles & Woodland,9,14,5,2,49.2731,-123.0732,2023-06-03T16:41:29.960000Z
Vancouver,18th & Main,15,16,1,1,49.254667,-123.101389,2023-06-03T16:41:29.994000Z
Vancouver,Prince Edward & 16th,10,14,4,0,49.256694,-123.096579,2023-06-03T16:41:29.996000Z
Vancouver,Prince Edward & 14th,14,14,0,0,49.258352,-123.096337,2023-06-03T16:41:29.996000Z
Vancouver,13th & St George,9,16,7,1,49.258817,-123.092797,2023-06-03T16:41:29.907000Z
Vancouver,10th & Fraser,10,14,3,2,49.26151,-123.089413,2023-06-03T16:41:29.765000Z
Vancouver,8th & Fraser,13,16,3,2,49.263382,-123.088837,2023-06-03T16:41:29.766000Z
Vancouver,St Catherines & 10th,6,12,6,1,49.261353,-123.085333,2023-06-03T16:41:29.788000Z
Vancouver,St Catherines & 7th,10,20,10,2,49.264466,-123.085183,2023-06-03T16:41:29.789000Z
Vancouver,Pender & Victoria,12,16,4,0,49.280197,-123.065859,2023-06-03T16:41:29.887000Z
Vancouver,Victoria & 4th,8,16,8,2,49.266725,-123.065925,2023-06-03T16:41:29.886000Z
Vancouver,Victoria & 10th,11,12,1,1,49.261188,-123.066009,2023-06-03T16:41:29.885000Z
Vancouver,15th & Victoria (Trout Lake),14,18,4,2,49.256857,-123.065646,2023-06-03T16:41:29.734000Z
Vancouver,Triumph & Victoria,6,18,12,1,49.283986,-123.065264,2023-06-03T16:41:29.774000Z
Vancouver,Windsor & 14th,7,14,7,1,49.257985,-123.083366,2023-06-03T16:41:29.775000Z
Vancouver,14th & Fraser,5,16,10,1,49.257939,-123.089531,2023-06-03T16:41:29.773000Z
Vancouver,15th & Knight,3,14,11,4,49.256496,-123.075426,2023-06-03T16:41:29.774000Z
Vancouver,Commercial & Pandora,3,16,13,0,49.283236,-123.070443,2023-06-03T16:41:29.772000Z
Vancouver,Carolina & Great Northern Way,9,16,6,1,49.267266,-123.090786,2023-06-03T16:41:29.769000Z
Vancouver,6th & Prince Edward,11,16,4,1,49.265242,-123.095577,2023-06-03T16:41:29.844000Z
Vancouver,6th & Carolina,12,16,4,2,49.265213,-123.090785,2023-06-03T16:41:29.833000Z
Vancouver,Stanley Park - Third Beach Parking Lot,34,38,4,2,49.302577,-123.155616,2023-06-03T16:41:29.820000Z
Vancouver,Union & Dunlevy,1,16,14,1,49.277595,-123.09583,2023-06-03T16:41:30.006000Z
Vancouver,Keefer & Hawks,13,16,3,1,49.279235,-123.087528,2023-06-03T16:41:30.013000Z
Vancouver,Hawks & Union,2,16,14,0,49.277333,-123.087359,2023-06-03T16:41:30.025000Z
Vancouver,Charles & Commercial,19,22,3,2,49.273103,-123.069892,2023-06-03T16:41:29.694000Z
Vancouver,10th & Kingsway,11,20,9,4,49.261973,-123.09725,2023-06-03T16:41:29.909000Z
Vancouver,Beach & Hornby,2,22,20,3,49.275295,-123.132585,2023-06-03T16:41:29.721000Z
Vancouver,Burrard Station (Melville & Dunsmuir),18,28,10,0,49.285871,-123.12105,2023-06-03T16:41:29.945000Z
Vancouver,Bute & Barclay,6,14,8,2,49.284893,-123.128685,2023-06-03T16:41:29.714000Z
Vancouver,8th & Yukon,15,22,6,0,49.263962,-123.112621,2023-06-03T16:41:29.894000Z
Vancouver,Princess & Union,3,12,9,0,49.277615,-123.091654,2023-06-03T16:41:29.851000Z
Vancouver,Dunsmuir & Richards,14,22,8,0,49.282214,-123.114101,2023-06-03T16:41:29.992000Z
Vancouver,5th & Main,14,20,6,4,49.266456,-123.100324,2023-06-03T16:41:29.849000Z
Vancouver,3rd & Quebec,0,20,19,0,49.268216,-123.103168,2023-06-03T16:41:29.829000Z
Vancouver,Richards & Cordova,4,24,20,0,49.284554,-123.111031,2023-06-03T16:41:29.716000Z
Vancouver,Richards & Robson,18,20,2,1,49.280216,-123.117639,2023-06-03T16:41:29.733000Z
Vancouver,Olympic Village Station,4,26,22,4,49.266314,-123.116011,2023-06-03T16:41:29.941000Z
Vancouver,Campbell & Hastings,10,14,4,1,49.280852,-123.084746,2023-06-03T16:41:29.830000Z
Vancouver,Cardero & Davie,8,18,5,4,49.285512,-123.1384,2023-06-03T16:41:29.718000Z
Vancouver,Aquatic Centre,24,40,16,1,49.27821,-123.136972,2023-06-03T16:41:30.013000Z
Vancouver,Beach & Broughton,9,22,13,1,49.281301,-123.139108,2023-06-03T16:41:30.009000Z
Vancouver,Beach & Cardero,9,22,13,0,49.283298,-123.142288,2023-06-03T16:41:29.697000Z
Vancouver,Georgia & Homer,8,18,9,0,49.280787,-123.115271,2023-06-03T16:41:29.704000Z
Vancouver,Columbia & 5th,10,18,8,0,49.266476,-123.109389,2023-06-03T16:41:29.958000Z
Vancouver,Haro & Denman,2,20,17,0,49.290587,-123.13625,2023-06-03T16:41:29.717000Z
Vancouver,Stanley Park - Prospect Point,0,0,0,0,49.312568,-123.144177,2023-06-03T16:41:29.819000Z
Vancouver,Arbutus & 10th,17,18,1,0,49.262835,-123.152626,2023-06-03T16:41:29.974000Z
Vancouver,Ontario & 16th,9,14,5,3,49.256825,-123.105234,2023-06-03T16:41:29.684000Z
Vancouver,Richards & Davie,13,14,1,1,49.275683,-123.124388,2023-06-03T16:41:30.012000Z
Vancouver,8th & Prince Edward,12,18,6,1,49.263518,-123.09568,2023-06-03T16:41:29.801000Z
Vancouver,Jervis & Robson,17,20,3,3,49.28691,-123.128818,2023-06-03T16:41:30.030000Z
Vancouver,Smithe & Burrard,14,20,5,1,49.282503,-123.124697,2023-06-03T16:41:29.852000Z
Vancouver,Broughton & Davie,15,22,3,2,49.283749,-123.136133,2023-06-03T16:41:30.010000Z
Vancouver,Cypress & 10th,11,14,3,0,49.262944,-123.148109,2023-06-03T16:41:29.922000Z
Vancouver,Granville Island,10,20,10,3,49.27029,-123.135025,2023-06-03T16:41:29.910000Z
Vancouver,McLean & Pender,8,16,8,2,49.280427,-123.074082,2023-06-03T16:41:30.022000Z
Vancouver,Richards & Smithe,6,18,11,1,49.279259,-123.119145,2023-06-03T16:41:29.744000Z
Vancouver,Bute & Robson,4,26,21,0,49.285836,-123.127265,2023-06-03T16:41:29.687000Z
Vancouver,Trafalgar & Cornwall,10,20,10,1,49.272969,-123.164325,2023-06-03T16:41:29.920000Z
Vancouver,Alma & Point Grey,8,24,15,5,49.27247,-123.185643,2023-06-03T16:41:30.027000Z
Vancouver,Point Grey & Blenheim,3,14,11,2,49.271471,-123.17731,2023-06-03T16:41:29.783000Z
Vancouver,Hastings & Broughton,13,24,11,0,49.290112,-123.127062,2023-06-03T16:41:29.685000Z
Vancouver,Yew & Broadway,15,18,3,1,49.263523,-123.155267,2023-06-03T16:41:30.027000Z
Vancouver,8th & Macdonald,4,22,18,1,49.264928,-123.168068,2023-06-03T16:41:29.823000Z
Vancouver,Balaclava & Broadway,3,18,15,7,49.264483,-123.173926,2023-06-03T16:41:29.781000Z
Vancouver,Dunbar & Broadway,16,26,10,1,49.264579,-123.18373,2023-06-03T16:41:30.028000Z
Vancouver,Grandview & Commercial,8,16,7,2,49.263746,-123.069892,2023-06-03T16:41:29.995000Z
Vancouver,14th & Oak,9,14,5,5,49.258761,-123.127071,2023-06-03T16:41:29.779000Z
Vancouver,Wallace & 4th,6,18,12,8,49.268974,-123.190701,2023-06-03T16:41:30.003000Z
Vancouver,Balsam & Cornwall,7,20,13,1,49.273011,-123.159663,2023-06-03T16:41:29.968000Z
Vancouver,Balaclava & 6th,2,16,14,2,49.266924,-123.173849,2023-06-03T16:41:29.741000Z
Vancouver,Trafalgar & Broadway,3,16,13,2,49.264326,-123.164725,2023-06-03T16:41:29.682000Z
Vancouver,Dunbar & 6th,9,16,7,1,49.266636,-123.183661,2023-06-03T16:41:30.029000Z
Vancouver,18th & Cambie,19,24,5,5,49.254818,-123.114785,2023-06-03T16:41:29.735000Z
Vancouver,Blenheim & 4th,16,23,7,0,49.268837,-123.177633,2023-06-03T16:41:29.738000Z
Vancouver,18th & Heather,13,16,3,1,49.255034,-123.120226,2023-06-03T16:41:29.845000Z
Vancouver,Point Grey & Bayswater,10,16,6,0,49.271044,-123.170661,2023-06-03T16:41:29.870000Z
Vancouver,20th & Main,14,16,2,1,49.252691,-123.101289,2023-06-03T16:41:29.740000Z
Vancouver,Station & Terminal,6,18,12,1,49.272172,-123.097978,2023-06-03T16:41:29.841000Z
Vancouver,Jericho Beach,7,34,27,8,49.271082,-123.191458,2023-06-03T16:41:30.002000Z
Vancouver,Burrard & Drake,10,24,13,2,49.27808,-123.130557,2023-06-03T16:41:30.008000Z
Vancouver,Columbia & 1st,11,24,12,2,49.269969,-123.109623,2023-06-03T16:41:29.897000Z
Vancouver,Davie & Beach,18,30,12,4,49.287528,-123.142139,2023-06-03T16:41:30.020000Z
Vancouver,Morton & Denman,18,26,8,2,49.28803,-123.142135,2023-06-03T16:41:29.688000Z
Vancouver,13th & Cambie,13,14,0,0,49.259579,-123.114769,2023-06-03T16:41:30.041000Z
Vancouver,Nelson & Denman,7,18,9,0,49.2890705989865,-123.138407369468,2023-06-03T16:41:30.061000Z
Vancouver,Melville & Bute,8,14,6,1,49.287782,-123.12395,2023-06-03T16:41:29.857000Z
Vancouver,Seymour & Cordova,7,19,12,1,49.28512,-123.11242,2023-06-03T16:41:29.843000Z
Vancouver,Arbutus & Nanton,9,18,7,6,49.247854,-123.153422,2023-06-03T16:41:29.954000Z
Vancouver,Yukon & 6th,2,18,10,5,49.265939,-123.1129,2023-06-03T16:41:29.896000Z
Vancouver,11th & Kingsway,13,16,2,2,49.261122,-123.097571,2023-06-03T16:41:29.872000Z
Vancouver,Wylie & 2nd,3,18,15,1,49.267725,-123.11311,2023-06-03T16:41:29.700000Z
Vancouver,29th & Cambie,16,20,4,0,49.245135,-123.116098,2023-06-03T16:41:29.767000Z
Vancouver,Rolston & Granville,8,16,5,1,49.274232,-123.129998,2023-06-03T16:41:30.051000Z
Vancouver,East Blvd & 37th,9,20,11,0,49.238105,-123.154966,2023-06-03T16:41:29.979000Z
Vancouver,28th & Willow,17,20,3,3,49.246243,-123.124373,2023-06-03T16:41:29.705000Z
Vancouver,Ontario & 23rd,7,12,5,1,49.249722,-123.104991,2023-06-03T16:41:30.085000Z
Vancouver,30th & Ontario,10,22,12,6,49.243375,-123.104978,2023-06-03T16:41:30.001000Z
Vancouver,Franklin & Nanaimo,11,20,9,2,49.282087,-123.056909,2023-06-03T16:41:29.967000Z
Vancouver,Lakewood & Triumph,12,16,4,2,49.283968,-123.061615,2023-06-03T16:41:29.921000Z
Vancouver,Wall & Eton,3,18,15,1,49.287464,-123.060771,2023-06-03T16:41:29.739000Z
Vancouver,Lakewood & Oxford,13,18,5,0,49.285575,-123.061575,2023-06-03T16:41:29.888000Z
Vancouver,22nd & Cambie,13,14,1,1,49.251358,-123.115637,2023-06-03T16:41:29.736000Z
Vancouver,King Edward & Cambie,15,18,2,0,49.249184,-123.116141,2023-06-03T16:41:29.768000Z
Vancouver,Heather & 29th,14,22,8,2,49.245535,-123.120496,2023-06-03T16:41:29.842000Z
Vancouver,Cardero & Robson,4,26,22,4,49.289255,-123.132677,2023-06-03T16:41:29.719000Z
Vancouver,Commercial & 20th,19,20,1,1,49.252656,-123.067965,2023-06-03T16:41:29.835000Z
Vancouver,Burrard & 14th,9,18,5,3,49.259469,-123.145718,2023-06-03T16:41:29.846000Z
Vancouver,Hornby & Drake,18,24,6,1,49.277178,-123.13,2023-06-03T16:41:29.867000Z
Vancouver,Cardero & Bayshore,3,20,15,0,49.291597,-123.129158,2023-06-03T16:41:29.780000Z
Vancouver,27th & Main,21,22,1,1,49.247204,-123.101549,2023-06-03T16:41:30.010000Z
Vancouver,Cordova & Granville,8,18,9,0,49.2856698,-123.1125432,2023-06-03T16:41:30.015000Z
